[
    {
        "code": "AAF",
        "name": "Apalachicola Regional Airport (AAF), Florida, USA",
        "city": "Apalachicola",
        "state": "Florida",
        "lat": "29.72750092",
        "lng": "-85.02749634",
        "size": "small_airport"
    },
    {
        "code": "ABE",
        "name": "Lehigh Valley International Airport (ABE), Pennsylvania, USA",
        "city": "Allentown",
        "state": "Pennsylvania",
        "lat": "40.652099609375",
        "lng": "-75.44080352783203",
        "size": "medium_airport"
    },
    {
        "code": "ABI",
        "name": "Abilene Regional Airport (ABI), Texas, USA",
        "city": "Abilene",
        "state": "Texas",
        "lat": "32.4113006592",
        "lng": "-99.68190002440001",
        "size": "medium_airport"
    },
    {
        "code": "ABL",
        "name": "Ambler Airport (ABL), Alaska, USA",
        "city": "Ambler",
        "state": "Alaska",
        "lat": "67.106300354",
        "lng": "-157.856994629",
        "size": "medium_airport"
    },
    {
        "code": "ABQ",
        "name": "Albuquerque International Sunport Airport (ABQ), New Mexico, USA",
        "city": "Albuquerque",
        "state": "New Mexico",
        "lat": "35.040199279785156",
        "lng": "-106.60900115966797",
        "size": "large_airport"
    },
    {
        "code": "ABR",
        "name": "Aberdeen Regional Airport (ABR), South Dakota, USA",
        "city": "Aberdeen",
        "state": "South Dakota",
        "lat": "45.449100494384766",
        "lng": "-98.42179870605469",
        "size": "medium_airport"
    },
    {
        "code": "ABY",
        "name": "Southwest Georgia Regional Airport (ABY), Georgia, USA",
        "city": "Albany",
        "state": "Georgia",
        "lat": "31.535499572753906",
        "lng": "-84.19450378417969",
        "size": "medium_airport"
    },
    {
        "code": "ACB",
        "name": "Antrim County Airport (ACB), Michigan, USA",
        "city": "Bellaire",
        "state": "Michigan",
        "lat": "44.988602",
        "lng": "-85.198402",
        "size": "small_airport"
    },
    {
        "code": "ACK",
        "name": "Nantucket Memorial Airport (ACK), Massachusetts, USA",
        "city": "Nantucket",
        "state": "Massachusetts",
        "lat": "41.25310135",
        "lng": "-70.06020355",
        "size": "medium_airport"
    },
    {
        "code": "ACT",
        "name": "Waco Regional Airport (ACT), Texas, USA",
        "city": "Waco",
        "state": "Texas",
        "lat": "31.611299514770508",
        "lng": "-97.23049926757812",
        "size": "medium_airport"
    },
    {
        "code": "ACV",
        "name": "Arcata Airport (ACV), California, USA",
        "city": "Arcata/Eureka",
        "state": "California",
        "lat": "40.97809982299805",
        "lng": "-124.10900115966797",
        "size": "medium_airport"
    },
    {
        "code": "ACY",
        "name": "Atlantic City International Airport (ACY), New Jersey, USA",
        "city": "Atlantic City",
        "state": "New Jersey",
        "lat": "39.45759963989258",
        "lng": "-74.57720184326172",
        "size": "medium_airport"
    },
    {
        "code": "ADG",
        "name": "Lenawee County Airport (ADG), Michigan, USA",
        "city": "Adrian",
        "state": "Michigan",
        "lat": "41.8676986694",
        "lng": "-84.07730102539999",
        "size": "small_airport"
    },
    {
        "code": "ADK",
        "name": "Adak Airport (ADK), Alaska, USA",
        "city": "Adak Island",
        "state": "Alaska",
        "lat": "51.87799835205078",
        "lng": "-176.64599609375",
        "size": "medium_airport"
    },
    {
        "code": "ADM",
        "name": "Ardmore Municipal Airport (ADM), Oklahoma, USA",
        "city": "Ardmore",
        "state": "Oklahoma",
        "lat": "34.30301",
        "lng": "-97.0196342",
        "size": "small_airport"
    },
    {
        "code": "ADQ",
        "name": "Kodiak Airport (ADQ), Alaska, USA",
        "city": "Kodiak",
        "state": "Alaska",
        "lat": "57.75",
        "lng": "-152.4940033",
        "size": "medium_airport"
    },
    {
        "code": "ADR",
        "name": "Robert F Swinnie Airport (ADR), South Carolina, USA",
        "city": "Andrews",
        "state": "South Carolina",
        "lat": "33.4516983032",
        "lng": "-79.5261993408",
        "size": "small_airport"
    },
    {
        "code": "ADS",
        "name": "Addison Airport (ADS), Texas, USA",
        "city": "Dallas",
        "state": "Texas",
        "lat": "32.9686012268",
        "lng": "-96.8364028931",
        "size": "small_airport"
    },
    {
        "code": "ADT",
        "name": "Ada Municipal Airport (ADT), Oklahoma, USA",
        "city": "Ada",
        "state": "Oklahoma",
        "lat": "34.8042984009",
        "lng": "-96.67130279540001",
        "size": "small_airport"
    },
    {
        "code": "ADW",
        "name": "Andrews Air Force Base (ADW), Maryland, USA",
        "city": "Camp Springs",
        "state": "Maryland",
        "lat": "38.810798645",
        "lng": "-76.86699676510001",
        "size": "large_airport"
    },
    {
        "code": "AEL",
        "name": "Albert Lea Municipal Airport (AEL), Minnesota, USA",
        "city": "Albert Lea",
        "state": "Minnesota",
        "lat": "43.68149948",
        "lng": "-93.36720276",
        "size": "small_airport"
    },
    {
        "code": "AET",
        "name": "Allakaket Airport (AET), Alaska, USA",
        "city": "Allakaket",
        "state": "Alaska",
        "lat": "66.5518035889",
        "lng": "-152.621994019",
        "size": "small_airport"
    },
    {
        "code": "AEX",
        "name": "Alexandria International Airport (AEX), Louisiana, USA",
        "city": "Alexandria",
        "state": "Louisiana",
        "lat": "31.32740020751953",
        "lng": "-92.54979705810547",
        "size": "medium_airport"
    },
    {
        "code": "AFF",
        "name": "USAF Academy Airfield (AFF), Colorado, USA",
        "city": "Colorado Springs",
        "state": "Colorado",
        "lat": "38.96969986",
        "lng": "-104.8130035",
        "size": "small_airport"
    },
    {
        "code": "AFN",
        "name": "Jaffrey Airport Silver Ranch Airport (AFN), New Hampshire, USA",
        "city": "Jaffrey",
        "state": "New Hampshire",
        "lat": "42.805099487300005",
        "lng": "-72.0029983521",
        "size": "small_airport"
    },
    {
        "code": "AFO",
        "name": "Afton Municipal Airport (AFO), Wyoming, USA",
        "city": "Afton",
        "state": "Wyoming",
        "lat": "42.7112007141",
        "lng": "-110.942001343",
        "size": "small_airport"
    },
    {
        "code": "AFW",
        "name": "Fort Worth Alliance Airport (AFW), Texas, USA",
        "city": "Fort Worth",
        "state": "Texas",
        "lat": "32.9875984192",
        "lng": "-97.31880187990001",
        "size": "large_airport"
    },
    {
        "code": "AGC",
        "name": "Allegheny County Airport (AGC), Pennsylvania, USA",
        "city": "Pittsburgh",
        "state": "Pennsylvania",
        "lat": "40.354400634765625",
        "lng": "-79.9301986694336",
        "size": "medium_airport"
    },
    {
        "code": "AGO",
        "name": "Magnolia Municipal Airport (AGO), Arkansas, USA",
        "city": "Magnolia",
        "state": "Arkansas",
        "lat": "33.22800064",
        "lng": "-93.21700287",
        "size": "small_airport"
    },
    {
        "code": "AGS",
        "name": "Augusta Regional At Bush Field (AGS), Georgia, USA",
        "city": "Augusta",
        "state": "Georgia",
        "lat": "33.36989974975586",
        "lng": "-81.9645004272461",
        "size": "large_airport"
    },
    {
        "code": "AHC",
        "name": "Amedee Army Air Field (AHC), California, USA",
        "city": "Herlong",
        "state": "California",
        "lat": "40.26620102",
        "lng": "-120.1529999",
        "size": "small_airport"
    },
    {
        "code": "AHD",
        "name": "Ardmore Downtown Executive Airport (AHD), Oklahoma, USA",
        "city": "Ardmore",
        "state": "Oklahoma",
        "lat": "34.1469993591",
        "lng": "-97.1227035522",
        "size": "small_airport"
    },
    {
        "code": "AHF",
        "name": "Arapahoe Municipal Airport (AHF), Nebraska, USA",
        "city": "Arapahoe",
        "state": "Nebraska",
        "lat": "40.339500427199994",
        "lng": "-99.90650177",
        "size": "small_airport"
    },
    {
        "code": "AHH",
        "name": "Amery Municipal Airport (AHH), Wisconsin, USA",
        "city": "Amery",
        "state": "Wisconsin",
        "lat": "45.2811012268",
        "lng": "-92.37539672850001",
        "size": "small_airport"
    },
    {
        "code": "AHM",
        "name": "Ashland Municipal Sumner Parker Field (AHM), Oregon, USA",
        "city": "Ashland",
        "state": "Oregon",
        "lat": "42.190299987799996",
        "lng": "-122.661003113",
        "size": "small_airport"
    },
    {
        "code": "AHN",
        "name": "Athens Ben Epps Airport (AHN), Georgia, USA",
        "city": "Athens",
        "state": "Georgia",
        "lat": "33.94860076904297",
        "lng": "-83.32630157470703",
        "size": "medium_airport"
    },
    {
        "code": "AIA",
        "name": "Alliance Municipal Airport (AIA), Nebraska, USA",
        "city": "Alliance",
        "state": "Nebraska",
        "lat": "42.0531997681",
        "lng": "-102.804000854",
        "size": "small_airport"
    },
    {
        "code": "AID",
        "name": "Anderson Municipal Darlington Field (AID), Indiana, USA",
        "city": "Anderson",
        "state": "Indiana",
        "lat": "40.10860061649999",
        "lng": "-85.6129989624",
        "size": "small_airport"
    },
    {
        "code": "AIK",
        "name": "Aiken Municipal Airport (AIK), South Carolina, USA",
        "city": "Aiken",
        "state": "South Carolina",
        "lat": "33.6493988037",
        "lng": "-81.68499755859999",
        "size": "small_airport"
    },
    {
        "code": "AIN",
        "name": "Wainwright Airport (AIN), Alaska, USA",
        "city": "Wainwright",
        "state": "Alaska",
        "lat": "70.6380004883",
        "lng": "-159.994995117",
        "size": "medium_airport"
    },
    {
        "code": "AIO",
        "name": "Atlantic Municipal Airport (AIO), Iowa, USA",
        "city": "Atlantic",
        "state": "Iowa",
        "lat": "41.40729904",
        "lng": "-95.04689789",
        "size": "small_airport"
    },
    {
        "code": "AIV",
        "name": "George Downer Airport (AIV), Alabama, USA",
        "city": "Aliceville",
        "state": "Alabama",
        "lat": "33.106499",
        "lng": "-88.1978",
        "size": "small_airport"
    },
    {
        "code": "AIZ",
        "name": "Lee C Fine Memorial Airport (AIZ), Missouri, USA",
        "city": "Kaiser Lake Ozark",
        "state": "Missouri",
        "lat": "38.0960006714",
        "lng": "-92.54949951170002",
        "size": "small_airport"
    },
    {
        "code": "AKB",
        "name": "Atka Airport (AKB), Alaska, USA",
        "city": "Atka",
        "state": "Alaska",
        "lat": "52.22029877",
        "lng": "-174.2059937",
        "size": "small_airport"
    },
    {
        "code": "AKC",
        "name": "Akron Fulton International Airport (AKC), Ohio, USA",
        "city": "Akron",
        "state": "Ohio",
        "lat": "41.0374984741",
        "lng": "-81.4669036865",
        "size": "medium_airport"
    },
    {
        "code": "AKI",
        "name": "Akiak Airport (AKI), Alaska, USA",
        "city": "Akiak",
        "state": "Alaska",
        "lat": "60.9029006958",
        "lng": "-161.231002808",
        "size": "small_airport"
    },
    {
        "code": "AKK",
        "name": "Akhiok Airport (AKK), Alaska, USA",
        "city": "Akhiok",
        "state": "Alaska",
        "lat": "56.9387016296",
        "lng": "-154.182998657",
        "size": "small_airport"
    },
    {
        "code": "AKN",
        "name": "King Salmon Airport (AKN), Alaska, USA",
        "city": "King Salmon",
        "state": "Alaska",
        "lat": "58.67679977",
        "lng": "-156.6490021",
        "size": "medium_airport"
    },
    {
        "code": "AKO",
        "name": "Colorado Plains Regional Airport (AKO), Colorado, USA",
        "city": "Akron",
        "state": "Colorado",
        "lat": "40.1755981445",
        "lng": "-103.222000122",
        "size": "small_airport"
    },
    {
        "code": "AKP",
        "name": "Anaktuvuk Pass Airport (AKP), Alaska, USA",
        "city": "Anaktuvuk Pass",
        "state": "Alaska",
        "lat": "68.13359833",
        "lng": "-151.7429962",
        "size": "medium_airport"
    },
    {
        "code": "ALB",
        "name": "Albany International Airport (ALB), New York, USA",
        "city": "Albany",
        "state": "New York",
        "lat": "42.74829864501953",
        "lng": "-73.80169677734375",
        "size": "medium_airport"
    },
    {
        "code": "ALE",
        "name": "Alpine Casparis Municipal Airport (ALE), Texas, USA",
        "city": "Alpine",
        "state": "Texas",
        "lat": "30.384199142499998",
        "lng": "-103.683998108",
        "size": "small_airport"
    },
    {
        "code": "ALI",
        "name": "Alice International Airport (ALI), Texas, USA",
        "city": "Alice",
        "state": "Texas",
        "lat": "27.740900039699998",
        "lng": "-98.02690124510002",
        "size": "medium_airport"
    },
    {
        "code": "ALM",
        "name": "Alamogordo White Sands Regional Airport (ALM), New Mexico, USA",
        "city": "Alamogordo",
        "state": "New Mexico",
        "lat": "32.8399009705",
        "lng": "-105.990997314",
        "size": "medium_airport"
    },
    {
        "code": "ALN",
        "name": "St Louis Regional Airport (ALN), Illinois, USA",
        "city": "Alton/St Louis",
        "state": "Illinois",
        "lat": "38.89030075069999",
        "lng": "-90.0459976196",
        "size": "medium_airport"
    },
    {
        "code": "ALO",
        "name": "Waterloo Regional Airport (ALO), Iowa, USA",
        "city": "Waterloo",
        "state": "Iowa",
        "lat": "42.557098388671875",
        "lng": "-92.40029907226562",
        "size": "medium_airport"
    },
    {
        "code": "ALS",
        "name": "San Luis Valley Regional Bergman Field (ALS), Colorado, USA",
        "city": "Alamosa",
        "state": "Colorado",
        "lat": "37.434898",
        "lng": "-105.866997",
        "size": "medium_airport"
    },
    {
        "code": "ALW",
        "name": "Walla Walla Regional Airport (ALW), Washington, USA",
        "city": "Walla Walla",
        "state": "Washington",
        "lat": "46.09489822",
        "lng": "-118.288002",
        "size": "medium_airport"
    },
    {
        "code": "ALX",
        "name": "Thomas C Russell Field (ALX), Alabama, USA",
        "city": "Alexander City",
        "state": "Alabama",
        "lat": "32.914699554399995",
        "lng": "-85.9629974365",
        "size": "small_airport"
    },
    {
        "code": "AMA",
        "name": "Rick Husband Amarillo International Airport (AMA), Texas, USA",
        "city": "Amarillo",
        "state": "Texas",
        "lat": "35.219398498535156",
        "lng": "-101.70600128173828",
        "size": "large_airport"
    },
    {
        "code": "AMK",
        "name": "Animas Air Park (AMK), Colorado, USA",
        "city": "Durango",
        "state": "Colorado",
        "lat": "37.203201293899994",
        "lng": "-107.869003296",
        "size": "small_airport"
    },
    {
        "code": "AMN",
        "name": "Gratiot Community Airport (AMN), Michigan, USA",
        "city": "Alma",
        "state": "Michigan",
        "lat": "43.322101593",
        "lng": "-84.68800354",
        "size": "small_airport"
    },
    {
        "code": "AMW",
        "name": "Ames Municipal Airport (AMW), Iowa, USA",
        "city": "Ames",
        "state": "Iowa",
        "lat": "41.992001",
        "lng": "-93.621803",
        "size": "small_airport"
    },
    {
        "code": "ANB",
        "name": "Anniston Metropolitan Airport (ANB), Alabama, USA",
        "city": "Anniston",
        "state": "Alabama",
        "lat": "33.58819962",
        "lng": "-85.85810089",
        "size": "medium_airport"
    },
    {
        "code": "ANC",
        "name": "Ted Stevens Anchorage International Airport (ANC), Alaska, USA",
        "city": "Anchorage",
        "state": "Alaska",
        "lat": "61.174400329589844",
        "lng": "-149.99600219726562",
        "size": "large_airport"
    },
    {
        "code": "AND",
        "name": "Anderson Regional Airport (AND), South Carolina, USA",
        "city": "Anderson",
        "state": "South Carolina",
        "lat": "34.4945983887",
        "lng": "-82.70939636230001",
        "size": "medium_airport"
    },
    {
        "code": "ANI",
        "name": "Aniak Airport (ANI), Alaska, USA",
        "city": "Aniak",
        "state": "Alaska",
        "lat": "61.581600189208984",
        "lng": "-159.54299926757812",
        "size": "medium_airport"
    },
    {
        "code": "ANN",
        "name": "Annette Island Airport (ANN), Alaska, USA",
        "city": "Annette",
        "state": "Alaska",
        "lat": "55.04240036010742",
        "lng": "-131.57200622558594",
        "size": "medium_airport"
    },
    {
        "code": "ANP",
        "name": "Lee Airport (ANP), Maryland, USA",
        "city": "Annapolis",
        "state": "Maryland",
        "lat": "38.942902",
        "lng": "-76.568398",
        "size": "small_airport"
    },
    {
        "code": "ANQ",
        "name": "Tri State Steuben County Airport (ANQ), Indiana, USA",
        "city": "Angola",
        "state": "Indiana",
        "lat": "41.639702",
        "lng": "-85.083504",
        "size": "small_airport"
    },
    {
        "code": "ANV",
        "name": "Anvik Airport (ANV), Alaska, USA",
        "city": "Anvik",
        "state": "Alaska",
        "lat": "62.646702",
        "lng": "-160.190994",
        "size": "medium_airport"
    },
    {
        "code": "ANW",
        "name": "Ainsworth Municipal Airport (ANW), Nebraska, USA",
        "city": "Ainsworth",
        "state": "Nebraska",
        "lat": "42.579201",
        "lng": "-99.992996",
        "size": "small_airport"
    },
    {
        "code": "ANY",
        "name": "Anthony Municipal Airport (ANY), Kansas, USA",
        "city": "Anthony",
        "state": "Kansas",
        "lat": "37.158501",
        "lng": "-98.079597",
        "size": "small_airport"
    },
    {
        "code": "AOH",
        "name": "Lima Allen County Airport (AOH), Ohio, USA",
        "city": "Lima",
        "state": "Ohio",
        "lat": "40.706902",
        "lng": "-84.026703",
        "size": "small_airport"
    },
    {
        "code": "AOO",
        "name": "Altoona Blair County Airport (AOO), Pennsylvania, USA",
        "city": "Altoona",
        "state": "Pennsylvania",
        "lat": "40.29639816",
        "lng": "-78.31999969",
        "size": "medium_airport"
    },
    {
        "code": "APA",
        "name": "Centennial Airport (APA), Colorado, USA",
        "city": "Denver",
        "state": "Colorado",
        "lat": "39.57009888",
        "lng": "-104.848999",
        "size": "medium_airport"
    },
    {
        "code": "APC",
        "name": "Napa County Airport (APC), California, USA",
        "city": "Napa",
        "state": "California",
        "lat": "38.2132",
        "lng": "-122.280998",
        "size": "small_airport"
    },
    {
        "code": "APF",
        "name": "Naples Municipal Airport (APF), Florida, USA",
        "city": "Naples",
        "state": "Florida",
        "lat": "26.1525993347",
        "lng": "-81.7752990723",
        "size": "medium_airport"
    },
    {
        "code": "APG",
        "name": "Phillips Army Air Field (APG), Maryland, USA",
        "city": "Aberdeen Proving Grounds(Aberdeen)",
        "state": "Maryland",
        "lat": "39.466202",
        "lng": "-76.1688",
        "size": "medium_airport"
    },
    {
        "code": "APH",
        "name": "A P Hill Aaf (Fort A P Hill) Airport (APH), Virginia, USA",
        "city": "Fort A. P. Hill",
        "state": "Virginia",
        "lat": "38.06890106",
        "lng": "-77.31829834",
        "size": "small_airport"
    },
    {
        "code": "APN",
        "name": "Alpena County Regional Airport (APN), Michigan, USA",
        "city": "Alpena",
        "state": "Michigan",
        "lat": "45.0780983",
        "lng": "-83.56030273",
        "size": "medium_airport"
    },
    {
        "code": "APT",
        "name": "Marion County Brown Field (APT), Tennessee, USA",
        "city": "Jasper",
        "state": "Tennessee",
        "lat": "35.060699",
        "lng": "-85.585297",
        "size": "small_airport"
    },
    {
        "code": "APV",
        "name": "Apple Valley Airport (APV), California, USA",
        "city": "Apple Valley",
        "state": "California",
        "lat": "34.575298309299995",
        "lng": "-117.185997009",
        "size": "small_airport"
    },
    {
        "code": "AQY",
        "name": "Girdwood Airport (AQY), Alaska, USA",
        "city": "Girdwood",
        "state": "Alaska",
        "lat": "60.966099",
        "lng": "-149.126007",
        "size": "small_airport"
    },
    {
        "code": "ARA",
        "name": "Acadiana Regional Airport (ARA), Louisiana, USA",
        "city": "New Iberia",
        "state": "Louisiana",
        "lat": "30.0378",
        "lng": "-91.883904",
        "size": "medium_airport"
    },
    {
        "code": "ARB",
        "name": "Ann Arbor Municipal Airport (ARB), Michigan, USA",
        "city": "Ann Arbor",
        "state": "Michigan",
        "lat": "42.2229995728",
        "lng": "-83.74559783939999",
        "size": "small_airport"
    },
    {
        "code": "ARC",
        "name": "Arctic Village Airport (ARC), Alaska, USA",
        "city": "Arctic Village",
        "state": "Alaska",
        "lat": "68.1147",
        "lng": "-145.578995",
        "size": "medium_airport"
    },
    {
        "code": "ARG",
        "name": "Walnut Ridge Regional Airport (ARG), Arkansas, USA",
        "city": "Walnut Ridge",
        "state": "Arkansas",
        "lat": "36.124667",
        "lng": "-90.925111",
        "size": "small_airport"
    },
    {
        "code": "ART",
        "name": "Watertown International Airport (ART), New York, USA",
        "city": "Watertown",
        "state": "New York",
        "lat": "43.99190139770508",
        "lng": "-76.02169799804688",
        "size": "medium_airport"
    },
    {
        "code": "ARV",
        "name": "Lakeland-Noble F. Lee Memorial field (ARV), Wisconsin, USA",
        "city": "Minocqua-Woodruff",
        "state": "Wisconsin",
        "lat": "45.92789841",
        "lng": "-89.73090363",
        "size": "small_airport"
    },
    {
        "code": "ASE",
        "name": "Aspen-Pitkin Co/Sardy Field (ASE), Colorado, USA",
        "city": "Aspen",
        "state": "Colorado",
        "lat": "39.22320175",
        "lng": "-106.8690033",
        "size": "medium_airport"
    },
    {
        "code": "ASH",
        "name": "Boire Field (ASH), New Hampshire, USA",
        "city": "Nashua",
        "state": "New Hampshire",
        "lat": "42.7817001343",
        "lng": "-71.51480102539999",
        "size": "small_airport"
    },
    {
        "code": "ASL",
        "name": "Harrison County Airport (ASL), Texas, USA",
        "city": "Marshall",
        "state": "Texas",
        "lat": "32.5205001831",
        "lng": "-94.307800293",
        "size": "small_airport"
    },
    {
        "code": "ASN",
        "name": "Talladega Municipal Airport (ASN), Alabama, USA",
        "city": "Talladega",
        "state": "Alabama",
        "lat": "33.569900512699995",
        "lng": "-86.05090332030001",
        "size": "small_airport"
    },
    {
        "code": "ASQ",
        "name": "Austin Airport (ASQ), Nevada, USA",
        "city": "Austin",
        "state": "Nevada",
        "lat": "39.4679985046",
        "lng": "-117.194999695",
        "size": "small_airport"
    },
    {
        "code": "AST",
        "name": "Astoria Regional Airport (AST), Oregon, USA",
        "city": "Astoria",
        "state": "Oregon",
        "lat": "46.158000946",
        "lng": "-123.878997803",
        "size": "medium_airport"
    },
    {
        "code": "ASX",
        "name": "John F Kennedy Memorial Airport (ASX), Wisconsin, USA",
        "city": "Ashland",
        "state": "Wisconsin",
        "lat": "46.54850006",
        "lng": "-90.91899872",
        "size": "small_airport"
    },
    {
        "code": "ASY",
        "name": "Ashley Municipal Airport (ASY), North Dakota, USA",
        "city": "Ashley",
        "state": "North Dakota",
        "lat": "46.0238990784",
        "lng": "-99.3526000977",
        "size": "small_airport"
    },
    {
        "code": "ATE",
        "name": "Antlers Municipal Airport (ATE), Oklahoma, USA",
        "city": "Antlers",
        "state": "Oklahoma",
        "lat": "34.1926002502",
        "lng": "-95.6499023438",
        "size": "small_airport"
    },
    {
        "code": "ATK",
        "name": "Atqasuk Edward Burnell Sr Memorial Airport (ATK), Alaska, USA",
        "city": "Atqasuk",
        "state": "Alaska",
        "lat": "70.46730041503906",
        "lng": "-157.43600463867188",
        "size": "medium_airport"
    },
    {
        "code": "ATL",
        "name": "Hartsfield Jackson Atlanta International Airport (ATL), Georgia, USA",
        "city": "Atlanta",
        "state": "Georgia",
        "lat": "33.63669967651367",
        "lng": "-84.4281005859375",
        "size": "large_airport"
    },
    {
        "code": "ATO",
        "name": "Ohio University Snyder Field (ATO), Ohio, USA",
        "city": "Athens/Albany",
        "state": "Ohio",
        "lat": "39.2109985352",
        "lng": "-82.23139953610001",
        "size": "small_airport"
    },
    {
        "code": "ATS",
        "name": "Artesia Municipal Airport (ATS), New Mexico, USA",
        "city": "Artesia",
        "state": "New Mexico",
        "lat": "32.8525009155",
        "lng": "-104.468002319",
        "size": "small_airport"
    },
    {
        "code": "ATT",
        "name": "Atmautluak Airport (ATT), Alaska, USA",
        "city": "Atmautluak",
        "state": "Alaska",
        "lat": "60.866699",
        "lng": "-162.272995",
        "size": "small_airport"
    },
    {
        "code": "ATW",
        "name": "Appleton International Airport (ATW), Wisconsin, USA",
        "city": "Appleton",
        "state": "Wisconsin",
        "lat": "44.258098602299995",
        "lng": "-88.5190963745",
        "size": "small_airport"
    },
    {
        "code": "ATY",
        "name": "Watertown Regional Airport (ATY), South Dakota, USA",
        "city": "Watertown",
        "state": "South Dakota",
        "lat": "44.91400146",
        "lng": "-97.15470123",
        "size": "medium_airport"
    },
    {
        "code": "AUG",
        "name": "Augusta State Airport (AUG), Maine, USA",
        "city": "Augusta",
        "state": "Maine",
        "lat": "44.320598602299995",
        "lng": "-69.7973022461",
        "size": "medium_airport"
    },
    {
        "code": "AUK",
        "name": "Alakanuk Airport (AUK), Alaska, USA",
        "city": "Alakanuk",
        "state": "Alaska",
        "lat": "62.680042266799994",
        "lng": "-164.659927368",
        "size": "small_airport"
    },
    {
        "code": "AUM",
        "name": "Austin Municipal Airport (AUM), Minnesota, USA",
        "city": "Austin",
        "state": "Minnesota",
        "lat": "43.66500092",
        "lng": "-92.93340302",
        "size": "small_airport"
    },
    {
        "code": "AUN",
        "name": "Auburn Municipal Airport (AUN), California, USA",
        "city": "Auburn",
        "state": "California",
        "lat": "38.95479965",
        "lng": "-121.0820007",
        "size": "small_airport"
    },
    {
        "code": "AUO",
        "name": "Auburn Opelika Robert G. Pitts Airport (AUO), Alabama, USA",
        "city": "Auburn",
        "state": "Alabama",
        "lat": "32.61510086",
        "lng": "-85.43399811",
        "size": "small_airport"
    },
    {
        "code": "AUS",
        "name": "Austin Bergstrom International Airport (AUS), Texas, USA",
        "city": "Austin",
        "state": "Texas",
        "lat": "30.194499969482422",
        "lng": "-97.6698989868164",
        "size": "large_airport"
    },
    {
        "code": "AUW",
        "name": "Wausau Downtown Airport (AUW), Wisconsin, USA",
        "city": "Wausau",
        "state": "Wisconsin",
        "lat": "44.9262008667",
        "lng": "-89.6266021729",
        "size": "medium_airport"
    },
    {
        "code": "AUZ",
        "name": "Aurora Municipal Airport (AUZ), Illinois, USA",
        "city": "Chicago/Aurora",
        "state": "Illinois",
        "lat": "41.771900177",
        "lng": "-88.47570037839999",
        "size": "small_airport"
    },
    {
        "code": "AVL",
        "name": "Asheville Regional Airport (AVL), North Carolina, USA",
        "city": "Asheville",
        "state": "North Carolina",
        "lat": "35.43619918823242",
        "lng": "-82.54180145263672",
        "size": "large_airport"
    },
    {
        "code": "AVO",
        "name": "Avon Park Executive Airport (AVO), Florida, USA",
        "city": "Avon Park",
        "state": "Florida",
        "lat": "27.59119987",
        "lng": "-81.52780151",
        "size": "small_airport"
    },
    {
        "code": "AVP",
        "name": "Wilkes Barre Scranton International Airport (AVP), Pennsylvania, USA",
        "city": "Wilkes-Barre/Scranton",
        "state": "Pennsylvania",
        "lat": "41.338500976599995",
        "lng": "-75.72339630130001",
        "size": "medium_airport"
    },
    {
        "code": "AVW",
        "name": "Marana Regional Airport (AVW), Arizona, USA",
        "city": "Tucson",
        "state": "Arizona",
        "lat": "32.4095993042",
        "lng": "-111.218002319",
        "size": "small_airport"
    },
    {
        "code": "AVX",
        "name": "Catalina Airport (AVX), California, USA",
        "city": "Avalon",
        "state": "California",
        "lat": "33.4049",
        "lng": "-118.416",
        "size": "small_airport"
    },
    {
        "code": "AWM",
        "name": "West Memphis Municipal Airport (AWM), Arkansas, USA",
        "city": "West Memphis",
        "state": "Arkansas",
        "lat": "35.1351013184",
        "lng": "-90.2343978882",
        "size": "small_airport"
    },
    {
        "code": "AXB",
        "name": "Maxson Airfield (AXB), New York, USA",
        "city": "Alexandria Bay",
        "state": "New York",
        "lat": "44.312002",
        "lng": "-75.90034",
        "size": "small_airport"
    },
    {
        "code": "AXG",
        "name": "Algona Municipal Airport (AXG), Iowa, USA",
        "city": "Algona",
        "state": "Iowa",
        "lat": "43.0778999329",
        "lng": "-94.2720031738",
        "size": "small_airport"
    },
    {
        "code": "AXN",
        "name": "Chandler Field (AXN), Minnesota, USA",
        "city": "Alexandria",
        "state": "Minnesota",
        "lat": "45.8662986755",
        "lng": "-95.39469909670001",
        "size": "medium_airport"
    },
    {
        "code": "AXS",
        "name": "Altus Quartz Mountain Regional Airport (AXS), Oklahoma, USA",
        "city": "Altus",
        "state": "Oklahoma",
        "lat": "34.697952",
        "lng": "-99.3385",
        "size": "small_airport"
    },
    {
        "code": "AXV",
        "name": "Neil Armstrong Airport (AXV), Ohio, USA",
        "city": "Wapakoneta",
        "state": "Ohio",
        "lat": "40.49340057",
        "lng": "-84.29889679",
        "size": "small_airport"
    },
    {
        "code": "AXX",
        "name": "Angel Fire Airport (AXX), New Mexico, USA",
        "city": "Angel Fire",
        "state": "New Mexico",
        "lat": "36.422000885",
        "lng": "-105.290000916",
        "size": "small_airport"
    },
    {
        "code": "AYS",
        "name": "Waycross Ware County Airport (AYS), Georgia, USA",
        "city": "Waycross",
        "state": "Georgia",
        "lat": "31.2490997314",
        "lng": "-82.39550018310001",
        "size": "small_airport"
    },
    {
        "code": "AZA",
        "name": "Phoenix-Mesa-Gateway Airport (AZA), Arizona, USA",
        "city": "Phoenix",
        "state": "Arizona",
        "lat": "33.30780029",
        "lng": "-111.6549988",
        "size": "medium_airport"
    },
    {
        "code": "AZO",
        "name": "Kalamazoo Battle Creek International Airport (AZO), Michigan, USA",
        "city": "Kalamazoo",
        "state": "Michigan",
        "lat": "42.234901428222656",
        "lng": "-85.5521011352539",
        "size": "medium_airport"
    },
    {
        "code": "BAB",
        "name": "Beale Air Force Base (BAB), California, USA",
        "city": "Marysville",
        "state": "California",
        "lat": "39.136100769",
        "lng": "-121.43699646",
        "size": "large_airport"
    },
    {
        "code": "BAD",
        "name": "Barksdale Air Force Base (BAD), Louisiana, USA",
        "city": "Bossier City",
        "state": "Louisiana",
        "lat": "32.5018005371",
        "lng": "-93.6626968384",
        "size": "large_airport"
    },
    {
        "code": "BAF",
        "name": "Barnes Municipal Airport (BAF), Massachusetts, USA",
        "city": "Westfield/Springfield",
        "state": "Massachusetts",
        "lat": "42.157799",
        "lng": "-72.715599",
        "size": "medium_airport"
    },
    {
        "code": "BAM",
        "name": "Battle Mountain Airport (BAM), Nevada, USA",
        "city": "Battle Mountain",
        "state": "Nevada",
        "lat": "40.598999023400005",
        "lng": "-116.874000549",
        "size": "small_airport"
    },
    {
        "code": "BBB",
        "name": "Benson Municipal Airport (BBB), Minnesota, USA",
        "city": "Benson",
        "state": "Minnesota",
        "lat": "45.331901550299996",
        "lng": "-95.6505966187",
        "size": "small_airport"
    },
    {
        "code": "BBC",
        "name": "Bay City Municipal Airport (BBC), Texas, USA",
        "city": "Bay City",
        "state": "Texas",
        "lat": "28.9733009338",
        "lng": "-95.8635025024",
        "size": "small_airport"
    },
    {
        "code": "BBD",
        "name": "Curtis Field (BBD), Texas, USA",
        "city": "Brady",
        "state": "Texas",
        "lat": "31.1793003082",
        "lng": "-99.3238983154",
        "size": "medium_airport"
    },
    {
        "code": "BBW",
        "name": "Broken Bow Municipal Airport (BBW), Nebraska, USA",
        "city": "Broken Bow",
        "state": "Nebraska",
        "lat": "41.4365005493",
        "lng": "-99.6421966553",
        "size": "small_airport"
    },
    {
        "code": "BBX",
        "name": "Wings Field (BBX), Pennsylvania, USA",
        "city": "Philadelphia",
        "state": "Pennsylvania",
        "lat": "40.1375007629",
        "lng": "-75.2650985718",
        "size": "small_airport"
    },
    {
        "code": "BCB",
        "name": "Virginia Tech Montgomery Executive Airport (BCB), Virginia, USA",
        "city": "Blacksburg",
        "state": "Virginia",
        "lat": "37.207599639899996",
        "lng": "-80.4077987671",
        "size": "small_airport"
    },
    {
        "code": "BCC",
        "name": "Bear Creek 3 Airport (BCC), Alaska, USA",
        "city": "Bear Creek",
        "state": "Alaska",
        "lat": "63.5733160384",
        "lng": "-156.149454117",
        "size": "small_airport"
    },
    {
        "code": "BCE",
        "name": "Bryce Canyon Airport (BCE), Utah, USA",
        "city": "Bryce Canyon",
        "state": "Utah",
        "lat": "37.706401825",
        "lng": "-112.144996643",
        "size": "medium_airport"
    },
    {
        "code": "BCS",
        "name": "Southern Seaplane Airport (BCS), Louisiana, USA",
        "city": "Belle Chasse",
        "state": "Louisiana",
        "lat": "29.8661003113",
        "lng": "-90.0222015381",
        "size": "small_airport"
    },
    {
        "code": "BCT",
        "name": "Boca Raton Airport (BCT), Florida, USA",
        "city": "Boca Raton",
        "state": "Florida",
        "lat": "26.3784999847",
        "lng": "-80.1076965332",
        "size": "small_airport"
    },
    {
        "code": "BDE",
        "name": "Baudette International Airport (BDE), Minnesota, USA",
        "city": "Baudette",
        "state": "Minnesota",
        "lat": "48.7284011841",
        "lng": "-94.612197876",
        "size": "medium_airport"
    },
    {
        "code": "BDF",
        "name": "Rinkenberger Restricted Landing Area (BDF), Illinois, USA",
        "city": "Bradford",
        "state": "Illinois",
        "lat": "41.230899810800004",
        "lng": "-89.61569976810001",
        "size": "small_airport"
    },
    {
        "code": "BDG",
        "name": "Blanding Municipal Airport (BDG), Utah, USA",
        "city": "Blanding",
        "state": "Utah",
        "lat": "37.58330154",
        "lng": "-109.4830017",
        "size": "small_airport"
    },
    {
        "code": "BDL",
        "name": "Bradley International Airport (BDL), Connecticut, USA",
        "city": "Hartford",
        "state": "Connecticut",
        "lat": "41.9388999939",
        "lng": "-72.68319702149999",
        "size": "large_airport"
    },
    {
        "code": "BDR",
        "name": "Igor I Sikorsky Memorial Airport (BDR), Connecticut, USA",
        "city": "Bridgeport",
        "state": "Connecticut",
        "lat": "41.16350173950195",
        "lng": "-73.1261978149414",
        "size": "medium_airport"
    },
    {
        "code": "BDX",
        "name": "Broadus Airport (BDX), Montana, USA",
        "city": "Broadus",
        "state": "Montana",
        "lat": "45.47249985",
        "lng": "-105.4540024",
        "size": "small_airport"
    },
    {
        "code": "BDY",
        "name": "Bandon State Airport (BDY), Oregon, USA",
        "city": "Bandon",
        "state": "Oregon",
        "lat": "43.08649826",
        "lng": "-124.4079971",
        "size": "small_airport"
    },
    {
        "code": "BEC",
        "name": "Beech Factory Airport (BEC), Kansas, USA",
        "city": "Wichita",
        "state": "Kansas",
        "lat": "37.694499969499994",
        "lng": "-97.21499633790002",
        "size": "small_airport"
    },
    {
        "code": "BED",
        "name": "Laurence G Hanscom Field (BED), Massachusetts, USA",
        "city": "Bedford",
        "state": "Massachusetts",
        "lat": "42.47000122",
        "lng": "-71.28900146",
        "size": "medium_airport"
    },
    {
        "code": "BEH",
        "name": "Southwest Michigan Regional Airport (BEH), Michigan, USA",
        "city": "Benton Harbor",
        "state": "Michigan",
        "lat": "42.128601074200006",
        "lng": "-86.4284973145",
        "size": "small_airport"
    },
    {
        "code": "BET",
        "name": "Bethel Airport (BET), Alaska, USA",
        "city": "Bethel",
        "state": "Alaska",
        "lat": "60.77980042",
        "lng": "-161.8379974",
        "size": "medium_airport"
    },
    {
        "code": "BFD",
        "name": "Bradford Regional Airport (BFD), Pennsylvania, USA",
        "city": "Bradford",
        "state": "Pennsylvania",
        "lat": "41.8031005859375",
        "lng": "-78.64009857177734",
        "size": "medium_airport"
    },
    {
        "code": "BFF",
        "name": "Western Neb. Rgnl/William B. Heilig Airport (BFF), Nebraska, USA",
        "city": "Scottsbluff",
        "state": "Nebraska",
        "lat": "41.87400055",
        "lng": "-103.5960007",
        "size": "medium_airport"
    },
    {
        "code": "BFG",
        "name": "Bullfrog Basin Airport (BFG), Utah, USA",
        "city": "Glen Canyon Natl Rec Area",
        "state": "Utah",
        "lat": "37.54579926",
        "lng": "-110.7129974",
        "size": "small_airport"
    },
    {
        "code": "BFI",
        "name": "Boeing Field King County International Airport (BFI), Washington, USA",
        "city": "Seattle",
        "state": "Washington",
        "lat": "47.529998779296875",
        "lng": "-122.302001953125",
        "size": "large_airport"
    },
    {
        "code": "BFK",
        "name": "Buckley Air Force Base (BFK), Colorado, USA",
        "city": "Aurora",
        "state": "Colorado",
        "lat": "39.701698303200004",
        "lng": "-104.751998901",
        "size": "medium_airport"
    },
    {
        "code": "BFL",
        "name": "Meadows Field (BFL), California, USA",
        "city": "Bakersfield",
        "state": "California",
        "lat": "35.43360138",
        "lng": "-119.0569992",
        "size": "medium_airport"
    },
    {
        "code": "BFM",
        "name": "Mobile Downtown Airport (BFM), Alabama, USA",
        "city": "Mobile",
        "state": "Alabama",
        "lat": "30.626800537100003",
        "lng": "-88.06809997559999",
        "size": "medium_airport"
    },
    {
        "code": "BFP",
        "name": "Beaver County Airport (BFP), Pennsylvania, USA",
        "city": "Beaver Falls",
        "state": "Pennsylvania",
        "lat": "40.7724990845",
        "lng": "-80.39140319820001",
        "size": "medium_airport"
    },
    {
        "code": "BFR",
        "name": "Virgil I Grissom Municipal Airport (BFR), Indiana, USA",
        "city": "Bedford",
        "state": "Indiana",
        "lat": "38.84000015",
        "lng": "-86.44539642",
        "size": "small_airport"
    },
    {
        "code": "BFT",
        "name": "Beaufort County Airport (BFT), South Carolina, USA",
        "city": "Beaufort",
        "state": "South Carolina",
        "lat": "32.4122009277",
        "lng": "-80.6343994141",
        "size": "small_airport"
    },
    {
        "code": "BGD",
        "name": "Hutchinson County Airport (BGD), Texas, USA",
        "city": "Borger",
        "state": "Texas",
        "lat": "35.700901031499995",
        "lng": "-101.393997192",
        "size": "small_airport"
    },
    {
        "code": "BGE",
        "name": "Decatur County Industrial Air Park (BGE), Georgia, USA",
        "city": "Bainbridge",
        "state": "Georgia",
        "lat": "30.9715004",
        "lng": "-84.63739777",
        "size": "small_airport"
    },
    {
        "code": "BGM",
        "name": "Greater Binghamton/Edwin A Link field (BGM), New York, USA",
        "city": "Binghamton",
        "state": "New York",
        "lat": "42.20869827",
        "lng": "-75.97979736",
        "size": "medium_airport"
    },
    {
        "code": "BGQ",
        "name": "Big Lake Airport (BGQ), Alaska, USA",
        "city": "Big Lake",
        "state": "Alaska",
        "lat": "61.536098480199996",
        "lng": "-149.813995361",
        "size": "small_airport"
    },
    {
        "code": "BGR",
        "name": "Bangor International Airport (BGR), Maine, USA",
        "city": "Bangor",
        "state": "Maine",
        "lat": "44.80739974975586",
        "lng": "-68.8281021118164",
        "size": "large_airport"
    },
    {
        "code": "BGT",
        "name": "Bagdad Airport (BGT), Arizona, USA",
        "city": "Bagdad",
        "state": "Arizona",
        "lat": "34.5959014893",
        "lng": "-113.169998169",
        "size": "small_airport"
    },
    {
        "code": "BHB",
        "name": "Hancock County-Bar Harbor Airport (BHB), Maine, USA",
        "city": "Bar Harbor",
        "state": "Maine",
        "lat": "44.45000076",
        "lng": "-68.3615036",
        "size": "medium_airport"
    },
    {
        "code": "BHM",
        "name": "Birmingham-Shuttlesworth International Airport (BHM), Alabama, USA",
        "city": "Birmingham",
        "state": "Alabama",
        "lat": "33.56290054",
        "lng": "-86.75350189",
        "size": "large_airport"
    },
    {
        "code": "BID",
        "name": "Block Island State Airport (BID), Rhode Island, USA",
        "city": "Block Island",
        "state": "Rhode Island",
        "lat": "41.1680984497",
        "lng": "-71.577796936",
        "size": "small_airport"
    },
    {
        "code": "BIE",
        "name": "Beatrice Municipal Airport (BIE), Nebraska, USA",
        "city": "Beatrice",
        "state": "Nebraska",
        "lat": "40.301300048799995",
        "lng": "-96.75409698490002",
        "size": "small_airport"
    },
    {
        "code": "BIF",
        "name": "Biggs Army Air Field (Fort Bliss) (BIF), Texas, USA",
        "city": "Fort Bliss/El Paso",
        "state": "Texas",
        "lat": "31.84950066",
        "lng": "-106.3799973",
        "size": "medium_airport"
    },
    {
        "code": "BIG",
        "name": "Allen Army Airfield (BIG), Alaska, USA",
        "city": "Delta Junction Ft Greely",
        "state": "Alaska",
        "lat": "63.9944992065",
        "lng": "-145.722000122",
        "size": "medium_airport"
    },
    {
        "code": "BIH",
        "name": "Eastern Sierra Regional Airport (BIH), California, USA",
        "city": "Bishop",
        "state": "California",
        "lat": "37.3731002808",
        "lng": "-118.363998413",
        "size": "medium_airport"
    },
    {
        "code": "BIL",
        "name": "Billings Logan International Airport (BIL), Montana, USA",
        "city": "Billings",
        "state": "Montana",
        "lat": "45.807701110839844",
        "lng": "-108.54299926757812",
        "size": "large_airport"
    },
    {
        "code": "BIS",
        "name": "Bismarck Municipal Airport (BIS), North Dakota, USA",
        "city": "Bismarck",
        "state": "North Dakota",
        "lat": "46.772701263427734",
        "lng": "-100.74600219726562",
        "size": "medium_airport"
    },
    {
        "code": "BIX",
        "name": "Keesler Air Force Base (BIX), Mississippi, USA",
        "city": "Biloxi",
        "state": "Mississippi",
        "lat": "30.4104003906",
        "lng": "-88.92440032959999",
        "size": "medium_airport"
    },
    {
        "code": "BJC",
        "name": "Rocky Mountain Metropolitan Airport (BJC), Colorado, USA",
        "city": "Denver",
        "state": "Colorado",
        "lat": "39.90879822",
        "lng": "-105.1169968",
        "size": "medium_airport"
    },
    {
        "code": "BJI",
        "name": "Bemidji Regional Airport (BJI), Minnesota, USA",
        "city": "Bemidji",
        "state": "Minnesota",
        "lat": "47.50939941",
        "lng": "-94.93370056",
        "size": "medium_airport"
    },
    {
        "code": "BJJ",
        "name": "Wayne County Airport (BJJ), Ohio, USA",
        "city": "Wooster",
        "state": "Ohio",
        "lat": "40.874801635699995",
        "lng": "-81.88829803470001",
        "size": "small_airport"
    },
    {
        "code": "BKC",
        "name": "Buckland Airport (BKC), Alaska, USA",
        "city": "Buckland",
        "state": "Alaska",
        "lat": "65.9815979004",
        "lng": "-161.149002075",
        "size": "medium_airport"
    },
    {
        "code": "BKD",
        "name": "Stephens County Airport (BKD), Texas, USA",
        "city": "Breckenridge",
        "state": "Texas",
        "lat": "32.71900177",
        "lng": "-98.89099884030001",
        "size": "small_airport"
    },
    {
        "code": "BKE",
        "name": "Baker City Municipal Airport (BKE), Oregon, USA",
        "city": "Baker City",
        "state": "Oregon",
        "lat": "44.837299346900004",
        "lng": "-117.808998108",
        "size": "medium_airport"
    },
    {
        "code": "BKG",
        "name": "Branson Airport (BKG), Missouri, USA",
        "city": "Branson",
        "state": "Missouri",
        "lat": "36.532082",
        "lng": "-93.200544",
        "size": "small_airport"
    },
    {
        "code": "BKH",
        "name": "Barking Sands Airport (BKH), Hawaii, USA",
        "city": "Kekaha",
        "state": "Hawaii",
        "lat": "22.022800445599998",
        "lng": "-159.785003662",
        "size": "medium_airport"
    },
    {
        "code": "BKL",
        "name": "Burke Lakefront Airport (BKL), Ohio, USA",
        "city": "Cleveland",
        "state": "Ohio",
        "lat": "41.51750183105469",
        "lng": "-81.68329620361328",
        "size": "medium_airport"
    },
    {
        "code": "BKT",
        "name": "Allen C Perkinson Blackstone Army Air Field (BKT), Virginia, USA",
        "city": "Blackstone",
        "state": "Virginia",
        "lat": "37.0741996765",
        "lng": "-77.9574966431",
        "size": "small_airport"
    },
    {
        "code": "BKW",
        "name": "Raleigh County Memorial Airport (BKW), West Virginia, USA",
        "city": "Beckley",
        "state": "West Virginia",
        "lat": "37.787300109899995",
        "lng": "-81.1241989136",
        "size": "medium_airport"
    },
    {
        "code": "BKX",
        "name": "Brookings Regional Airport (BKX), South Dakota, USA",
        "city": "Brookings",
        "state": "South Dakota",
        "lat": "44.3047981262207",
        "lng": "-96.81690216064453",
        "size": "small_airport"
    },
    {
        "code": "BLD",
        "name": "Boulder City Municipal Airport (BLD), Nevada, USA",
        "city": "Boulder City",
        "state": "Nevada",
        "lat": "35.9474983215",
        "lng": "-114.861000061",
        "size": "small_airport"
    },
    {
        "code": "BLF",
        "name": "Mercer County Airport (BLF), West Virginia, USA",
        "city": "Bluefield",
        "state": "West Virginia",
        "lat": "37.295799255371094",
        "lng": "-81.20770263671875",
        "size": "medium_airport"
    },
    {
        "code": "BLH",
        "name": "Blythe Airport (BLH), California, USA",
        "city": "Blythe",
        "state": "California",
        "lat": "33.6192016602",
        "lng": "-114.717002869",
        "size": "medium_airport"
    },
    {
        "code": "BLI",
        "name": "Bellingham International Airport (BLI), Washington, USA",
        "city": "Bellingham",
        "state": "Washington",
        "lat": "48.79280090332031",
        "lng": "-122.53800201416016",
        "size": "medium_airport"
    },
    {
        "code": "BLM",
        "name": "Monmouth Executive Airport (BLM), New Jersey, USA",
        "city": "Belmar/Farmingdale",
        "state": "New Jersey",
        "lat": "40.18690109",
        "lng": "-74.12490082",
        "size": "small_airport"
    },
    {
        "code": "BLU",
        "name": "Blue Canyon Nyack Airport (BLU), California, USA",
        "city": "Emigrant Gap",
        "state": "California",
        "lat": "39.2750015259",
        "lng": "-120.709999084",
        "size": "small_airport"
    },
    {
        "code": "BLV",
        "name": "Scott AFB/Midamerica Airport (BLV), Illinois, USA",
        "city": "Belleville",
        "state": "Illinois",
        "lat": "38.5452",
        "lng": "-89.835197",
        "size": "large_airport"
    },
    {
        "code": "BMC",
        "name": "Brigham City Airport (BMC), Utah, USA",
        "city": "Brigham City",
        "state": "Utah",
        "lat": "41.5523986816",
        "lng": "-112.06199646",
        "size": "small_airport"
    },
    {
        "code": "BMG",
        "name": "Monroe County Airport (BMG), Indiana, USA",
        "city": "Bloomington",
        "state": "Indiana",
        "lat": "39.145999908447266",
        "lng": "-86.61669921875",
        "size": "medium_airport"
    },
    {
        "code": "BMI",
        "name": "Central Illinois Regional Airport at Bloomington-Normal (BMI), Illinois, USA",
        "city": "Bloomington/Normal",
        "state": "Illinois",
        "lat": "40.47710037",
        "lng": "-88.91590118",
        "size": "large_airport"
    },
    {
        "code": "BML",
        "name": "Berlin Regional Airport (BML), New Hampshire, USA",
        "city": "Berlin",
        "state": "New Hampshire",
        "lat": "44.57540131",
        "lng": "-71.17590332",
        "size": "small_airport"
    },
    {
        "code": "BMT",
        "name": "Beaumont Municipal Airport (BMT), Texas, USA",
        "city": "Beaumont",
        "state": "Texas",
        "lat": "30.0706996918",
        "lng": "-94.21579742430002",
        "size": "small_airport"
    },
    {
        "code": "BMX",
        "name": "Big Mountain Airport (BMX), Alaska, USA",
        "city": "Big Mountain",
        "state": "Alaska",
        "lat": "59.3611984253",
        "lng": "-155.259002686",
        "size": "small_airport"
    },
    {
        "code": "BNA",
        "name": "Nashville International Airport (BNA), Tennessee, USA",
        "city": "Nashville",
        "state": "Tennessee",
        "lat": "36.1245002746582",
        "lng": "-86.6781997680664",
        "size": "large_airport"
    },
    {
        "code": "BNG",
        "name": "Banning Municipal Airport (BNG), California, USA",
        "city": "Banning",
        "state": "California",
        "lat": "33.9230995178",
        "lng": "-116.850997925",
        "size": "small_airport"
    },
    {
        "code": "BNL",
        "name": "Barnwell Regional Airport (BNL), South Carolina, USA",
        "city": "Barnwell",
        "state": "South Carolina",
        "lat": "33.25780106",
        "lng": "-81.38829803",
        "size": "small_airport"
    },
    {
        "code": "BNO",
        "name": "Burns Municipal Airport (BNO), Oregon, USA",
        "city": "Burns",
        "state": "Oregon",
        "lat": "43.5918998718",
        "lng": "-118.955001831",
        "size": "medium_airport"
    },
    {
        "code": "BNW",
        "name": "Boone Municipal Airport (BNW), Iowa, USA",
        "city": "Boone",
        "state": "Iowa",
        "lat": "42.0495986938",
        "lng": "-93.8476028442",
        "size": "small_airport"
    },
    {
        "code": "BOI",
        "name": "Boise Air Terminal/Gowen field (BOI), Idaho, USA",
        "city": "Boise",
        "state": "Idaho",
        "lat": "43.56439972",
        "lng": "-116.2229996",
        "size": "large_airport"
    },
    {
        "code": "BOK",
        "name": "Brookings Airport (BOK), Oregon, USA",
        "city": "Brookings",
        "state": "Oregon",
        "lat": "42.074600219699995",
        "lng": "-124.290000916",
        "size": "small_airport"
    },
    {
        "code": "BOS",
        "name": "General Edward Lawrence Logan International Airport (BOS), Massachusetts, USA",
        "city": "Boston",
        "state": "Massachusetts",
        "lat": "42.36429977",
        "lng": "-71.00520325",
        "size": "large_airport"
    },
    {
        "code": "BOW",
        "name": "Bartow Municipal Airport (BOW), Florida, USA",
        "city": "Bartow",
        "state": "Florida",
        "lat": "27.943399429299998",
        "lng": "-81.78340148930002",
        "size": "small_airport"
    },
    {
        "code": "BPI",
        "name": "Miley Memorial Field (BPI), Wyoming, USA",
        "city": "Big Piney",
        "state": "Wyoming",
        "lat": "42.58509827",
        "lng": "-110.1110001",
        "size": "medium_airport"
    },
    {
        "code": "BPT",
        "name": "Southeast Texas Regional Airport (BPT), Texas, USA",
        "city": "Beaumont/Port Arthur",
        "state": "Texas",
        "lat": "29.9507999420166",
        "lng": "-94.02069854736328",
        "size": "medium_airport"
    },
    {
        "code": "BQK",
        "name": "Brunswick Golden Isles Airport (BQK), Georgia, USA",
        "city": "Brunswick",
        "state": "Georgia",
        "lat": "31.258800506591797",
        "lng": "-81.46649932861328",
        "size": "medium_airport"
    },
    {
        "code": "BRD",
        "name": "Brainerd Lakes Regional Airport (BRD), Minnesota, USA",
        "city": "Brainerd",
        "state": "Minnesota",
        "lat": "46.39830017",
        "lng": "-94.13809967",
        "size": "medium_airport"
    },
    {
        "code": "BRL",
        "name": "Southeast Iowa Regional Airport (BRL), Iowa, USA",
        "city": "Burlington",
        "state": "Iowa",
        "lat": "40.783199310302734",
        "lng": "-91.12550354003906",
        "size": "medium_airport"
    },
    {
        "code": "BRO",
        "name": "Brownsville South Padre Island International Airport (BRO), Texas, USA",
        "city": "Brownsville",
        "state": "Texas",
        "lat": "25.90679931640625",
        "lng": "-97.4259033203125",
        "size": "medium_airport"
    },
    {
        "code": "BRW",
        "name": "Wiley Post Will Rogers Memorial Airport (BRW), Alaska, USA",
        "city": "Utqiavik",
        "state": "Alaska",
        "lat": "71.285402",
        "lng": "-156.766008",
        "size": "medium_airport"
    },
    {
        "code": "BRY",
        "name": "Samuels Field (BRY), Kentucky, USA",
        "city": "Bardstown",
        "state": "Kentucky",
        "lat": "37.8143005371",
        "lng": "-85.4996032715",
        "size": "small_airport"
    },
    {
        "code": "BSF",
        "name": "Bradshaw Army Airfield (BSF), Hawaii, USA",
        "city": "Camp Pohakuloa",
        "state": "Hawaii",
        "lat": "19.760099411",
        "lng": "-155.554000854",
        "size": "medium_airport"
    },
    {
        "code": "BSI",
        "name": "Blairsville (BSI), Pennsylvania, USA",
        "city": "Blairsville",
        "state": "Pennsylvania",
        "lat": "40.4447222222",
        "lng": "-79.2886388889",
        "size": "small_airport"
    },
    {
        "code": "BSQ",
        "name": "Bisbee Municipal Airport (BSQ), Arizona, USA",
        "city": "Bisbee",
        "state": "Arizona",
        "lat": "31.3640003204",
        "lng": "-109.883003235",
        "size": "small_airport"
    },
    {
        "code": "BSW",
        "name": "Boswell Bay Airport (BSW), Alaska, USA",
        "city": "Boswell Bay",
        "state": "Alaska",
        "lat": "60.4230995178",
        "lng": "-146.145996094",
        "size": "small_airport"
    },
    {
        "code": "BSZ",
        "name": "Bartletts Airport (BSZ), Alaska, USA",
        "city": "Egegik",
        "state": "Alaska",
        "lat": "58.2162017822",
        "lng": "-157.352005005",
        "size": "small_airport"
    },
    {
        "code": "BTF",
        "name": "Skypark Airport (BTF), Utah, USA",
        "city": "Bountiful",
        "state": "Utah",
        "lat": "40.8694000244",
        "lng": "-111.927001953",
        "size": "small_airport"
    },
    {
        "code": "BTI",
        "name": "Barter Island LRRS Airport (BTI), Alaska, USA",
        "city": "Barter Island Lrrs",
        "state": "Alaska",
        "lat": "70.1340026855",
        "lng": "-143.582000732",
        "size": "medium_airport"
    },
    {
        "code": "BTL",
        "name": "W K Kellogg Airport (BTL), Michigan, USA",
        "city": "Battle Creek",
        "state": "Michigan",
        "lat": "42.307300567599995",
        "lng": "-85.2515029907",
        "size": "medium_airport"
    },
    {
        "code": "BTM",
        "name": "Bert Mooney Airport (BTM), Montana, USA",
        "city": "Butte",
        "state": "Montana",
        "lat": "45.95479965209961",
        "lng": "-112.49700164794922",
        "size": "medium_airport"
    },
    {
        "code": "BTN",
        "name": "Marlboro County Jetport H.E. Avent Field (BTN), South Carolina, USA",
        "city": "Bennettsville",
        "state": "South Carolina",
        "lat": "34.62170029",
        "lng": "-79.73439789",
        "size": "small_airport"
    },
    {
        "code": "BTP",
        "name": "Butler County-K W Scholter Field (BTP), Pennsylvania, USA",
        "city": "Butler",
        "state": "Pennsylvania",
        "lat": "40.77690125",
        "lng": "-79.9496994",
        "size": "small_airport"
    },
    {
        "code": "BTR",
        "name": "Baton Rouge Metropolitan, Ryan Field (BTR), Louisiana, USA",
        "city": "Baton Rouge",
        "state": "Louisiana",
        "lat": "30.53319931",
        "lng": "-91.14959717",
        "size": "large_airport"
    },
    {
        "code": "BTT",
        "name": "Bettles Airport (BTT), Alaska, USA",
        "city": "Bettles",
        "state": "Alaska",
        "lat": "66.91390228",
        "lng": "-151.529007",
        "size": "medium_airport"
    },
    {
        "code": "BTV",
        "name": "Burlington International Airport (BTV), Vermont, USA",
        "city": "Burlington",
        "state": "Vermont",
        "lat": "44.471900939899996",
        "lng": "-73.15329742429999",
        "size": "medium_airport"
    },
    {
        "code": "BTY",
        "name": "Beatty Airport (BTY), Nevada, USA",
        "city": "Beatty",
        "state": "Nevada",
        "lat": "36.8610992432",
        "lng": "-116.787002563",
        "size": "small_airport"
    },
    {
        "code": "BUB",
        "name": "Cram Field (BUB), Nebraska, USA",
        "city": "Burwell",
        "state": "Nebraska",
        "lat": "41.776699066199996",
        "lng": "-99.14969635010002",
        "size": "small_airport"
    },
    {
        "code": "BUF",
        "name": "Buffalo Niagara International Airport (BUF), New York, USA",
        "city": "Buffalo",
        "state": "New York",
        "lat": "42.94049835",
        "lng": "-78.73220062",
        "size": "large_airport"
    },
    {
        "code": "BUM",
        "name": "Butler Memorial Airport (BUM), Missouri, USA",
        "city": "Butler",
        "state": "Missouri",
        "lat": "38.2897987366",
        "lng": "-94.3401031494",
        "size": "small_airport"
    },
    {
        "code": "BUR",
        "name": "Bob Hope Airport (BUR), California, USA",
        "city": "Burbank",
        "state": "California",
        "lat": "34.20069885253906",
        "lng": "-118.35900115966797",
        "size": "medium_airport"
    },
    {
        "code": "BVO",
        "name": "Bartlesville Municipal Airport (BVO), Oklahoma, USA",
        "city": "Bartlesville",
        "state": "Oklahoma",
        "lat": "36.76250076",
        "lng": "-96.01119995",
        "size": "small_airport"
    },
    {
        "code": "BVU",
        "name": "Beluga Airport (BVU), Alaska, USA",
        "city": "Beluga",
        "state": "Alaska",
        "lat": "61.1721992493",
        "lng": "-151.044006348",
        "size": "small_airport"
    },
    {
        "code": "BVX",
        "name": "Batesville Regional Airport (BVX), Arkansas, USA",
        "city": "Batesville",
        "state": "Arkansas",
        "lat": "35.7262001",
        "lng": "-91.64730072",
        "size": "small_airport"
    },
    {
        "code": "BVY",
        "name": "Beverly Municipal Airport (BVY), Massachusetts, USA",
        "city": "Beverly",
        "state": "Massachusetts",
        "lat": "42.584201812699995",
        "lng": "-70.91649627689999",
        "size": "medium_airport"
    },
    {
        "code": "BWC",
        "name": "Brawley Municipal Airport (BWC), California, USA",
        "city": "Brawley",
        "state": "California",
        "lat": "32.99290085",
        "lng": "-115.5169983",
        "size": "small_airport"
    },
    {
        "code": "BWD",
        "name": "Brownwood Regional Airport (BWD), Texas, USA",
        "city": "Brownwood",
        "state": "Texas",
        "lat": "31.793600082399998",
        "lng": "-98.9564971924",
        "size": "small_airport"
    },
    {
        "code": "BWG",
        "name": "Bowling Green Warren County Regional Airport (BWG), Kentucky, USA",
        "city": "Bowling Green",
        "state": "Kentucky",
        "lat": "36.964500427199994",
        "lng": "-86.41970062259999",
        "size": "medium_airport"
    },
    {
        "code": "BWI",
        "name": "Baltimore/Washington International Thurgood Marshall Airport (BWI), Maryland, USA",
        "city": "Baltimore",
        "state": "Maryland",
        "lat": "39.17539978",
        "lng": "-76.66829681",
        "size": "large_airport"
    },
    {
        "code": "BWL",
        "name": "Earl Henry Airport (BWL), Oklahoma, USA",
        "city": "Blackwell",
        "state": "Oklahoma",
        "lat": "36.7958984375",
        "lng": "-97.3170013428",
        "size": "small_airport"
    },
    {
        "code": "BWM",
        "name": "Bowman Municipal Airport (BWM), North Dakota, USA",
        "city": "Bowman",
        "state": "North Dakota",
        "lat": "46.187000274700004",
        "lng": "-103.428001404",
        "size": "small_airport"
    },
    {
        "code": "BXA",
        "name": "George R Carr Memorial Air Field (BXA), Louisiana, USA",
        "city": "Bogalusa",
        "state": "Louisiana",
        "lat": "30.813699722299997",
        "lng": "-89.8649978638",
        "size": "small_airport"
    },
    {
        "code": "BXK",
        "name": "Buckeye Municipal Airport (BXK), Arizona, USA",
        "city": "Buckeye",
        "state": "Arizona",
        "lat": "33.42039871",
        "lng": "-112.685997",
        "size": "small_airport"
    },
    {
        "code": "BXS",
        "name": "Borrego Valley Airport (BXS), California, USA",
        "city": "Borrego Springs",
        "state": "California",
        "lat": "33.2589988708",
        "lng": "-116.320999146",
        "size": "small_airport"
    },
    {
        "code": "BYA",
        "name": "Boundary Airport (BYA), Alaska, USA",
        "city": "Boundary",
        "state": "Alaska",
        "lat": "64.0783004761",
        "lng": "-141.113006592",
        "size": "small_airport"
    },
    {
        "code": "BYG",
        "name": "Johnson County Airport (BYG), Wyoming, USA",
        "city": "Buffalo",
        "state": "Wyoming",
        "lat": "44.381099700899995",
        "lng": "-106.722000122",
        "size": "small_airport"
    },
    {
        "code": "BYH",
        "name": "Arkansas International Airport (BYH), Arkansas, USA",
        "city": "Blytheville",
        "state": "Arkansas",
        "lat": "35.9642982483",
        "lng": "-89.94400024410001",
        "size": "medium_airport"
    },
    {
        "code": "BYI",
        "name": "Burley Municipal Airport (BYI), Idaho, USA",
        "city": "Burley",
        "state": "Idaho",
        "lat": "42.542598724399994",
        "lng": "-113.772003174",
        "size": "medium_airport"
    },
    {
        "code": "BYS",
        "name": "Bicycle Lake Army Air Field (BYS), California, USA",
        "city": "Fort Irwin/Barstow",
        "state": "California",
        "lat": "35.2804985046",
        "lng": "-116.629997253",
        "size": "medium_airport"
    },
    {
        "code": "BYW",
        "name": "Blakely Island Airport (BYW), Washington, USA",
        "city": "Blakely Island",
        "state": "Washington",
        "lat": "48.578998565700005",
        "lng": "-122.825996399",
        "size": "small_airport"
    },
    {
        "code": "BZF",
        "name": "Benton Field (BZF), California, USA",
        "city": "Redding",
        "state": "California",
        "lat": "40.5749015808",
        "lng": "-122.407997131",
        "size": "small_airport"
    },
    {
        "code": "BZN",
        "name": "Gallatin Field (BZN), Montana, USA",
        "city": "Bozeman",
        "state": "Montana",
        "lat": "45.77750015",
        "lng": "-111.1529999",
        "size": "medium_airport"
    },
    {
        "code": "BZT",
        "name": "Eagle Air Park (BZT), Texas, USA",
        "city": "Brazoria",
        "state": "Texas",
        "lat": "28.982200622559",
        "lng": "-95.579696655273",
        "size": "small_airport"
    },
    {
        "code": "CAD",
        "name": "Wexford County Airport (CAD), Michigan, USA",
        "city": "Cadillac",
        "state": "Michigan",
        "lat": "44.2752990723",
        "lng": "-85.4188995361",
        "size": "small_airport"
    },
    {
        "code": "CAE",
        "name": "Columbia Metropolitan Airport (CAE), South Carolina, USA",
        "city": "Columbia",
        "state": "South Carolina",
        "lat": "33.93880081176758",
        "lng": "-81.11949920654297",
        "size": "large_airport"
    },
    {
        "code": "CAK",
        "name": "Akron Canton Regional Airport (CAK), Ohio, USA",
        "city": "Akron",
        "state": "Ohio",
        "lat": "40.916099548339844",
        "lng": "-81.44219970703125",
        "size": "medium_airport"
    },
    {
        "code": "CAO",
        "name": "Clayton Municipal Airpark (CAO), New Mexico, USA",
        "city": "Clayton",
        "state": "New Mexico",
        "lat": "36.4462013245",
        "lng": "-103.166999817",
        "size": "small_airport"
    },
    {
        "code": "CAR",
        "name": "Caribou Municipal Airport (CAR), Maine, USA",
        "city": "Caribou",
        "state": "Maine",
        "lat": "46.871498107899995",
        "lng": "-68.0178985596",
        "size": "medium_airport"
    },
    {
        "code": "CBE",
        "name": "Greater Cumberland Regional Airport (CBE), Maryland, USA",
        "city": "Cumberland",
        "state": "Maryland",
        "lat": "39.615398407",
        "lng": "-78.7609024048",
        "size": "small_airport"
    },
    {
        "code": "CBF",
        "name": "Council Bluffs Municipal Airport (CBF), Iowa, USA",
        "city": "Council Bluffs",
        "state": "Iowa",
        "lat": "41.2592010498",
        "lng": "-95.760597229",
        "size": "small_airport"
    },
    {
        "code": "CBK",
        "name": "Shalz Field (CBK), Kansas, USA",
        "city": "Colby",
        "state": "Kansas",
        "lat": "39.42750168",
        "lng": "-101.0469971",
        "size": "small_airport"
    },
    {
        "code": "CBM",
        "name": "Columbus Air Force Base (CBM), Mississippi, USA",
        "city": "Columbus",
        "state": "Mississippi",
        "lat": "33.6437988281",
        "lng": "-88.44380187990001",
        "size": "large_airport"
    },
    {
        "code": "CCB",
        "name": "Cable Airport (CCB), California, USA",
        "city": "Upland",
        "state": "California",
        "lat": "34.1115989685",
        "lng": "-117.68800354",
        "size": "small_airport"
    },
    {
        "code": "CCG",
        "name": "Crane County Airport (CCG), Texas, USA",
        "city": "Crane",
        "state": "Texas",
        "lat": "31.415100097699998",
        "lng": "-102.362998962",
        "size": "small_airport"
    },
    {
        "code": "CCR",
        "name": "Buchanan Field (CCR), California, USA",
        "city": "Concord",
        "state": "California",
        "lat": "37.9897003174",
        "lng": "-122.056999207",
        "size": "small_airport"
    },
    {
        "code": "CCY",
        "name": "Northeast Iowa Regional Airport (CCY), Iowa, USA",
        "city": "Charles City",
        "state": "Iowa",
        "lat": "43.0726013184",
        "lng": "-92.6108016968",
        "size": "medium_airport"
    },
    {
        "code": "CDB",
        "name": "Cold Bay Airport (CDB), Alaska, USA",
        "city": "Cold Bay",
        "state": "Alaska",
        "lat": "55.20610046386719",
        "lng": "-162.72500610351562",
        "size": "medium_airport"
    },
    {
        "code": "CDC",
        "name": "Cedar City Regional Airport (CDC), Utah, USA",
        "city": "Cedar City",
        "state": "Utah",
        "lat": "37.70100021362305",
        "lng": "-113.0989990234375",
        "size": "medium_airport"
    },
    {
        "code": "CDH",
        "name": "Harrell Field (CDH), Arkansas, USA",
        "city": "Camden",
        "state": "Arkansas",
        "lat": "33.622798919699996",
        "lng": "-92.7633972168",
        "size": "small_airport"
    },
    {
        "code": "CDK",
        "name": "George T Lewis Airport (CDK), Florida, USA",
        "city": "Cedar Key",
        "state": "Florida",
        "lat": "29.1352567648",
        "lng": "-83.0483901501",
        "size": "small_airport"
    },
    {
        "code": "CDL",
        "name": "Candle 2 Airport (CDL), Alaska, USA",
        "city": "Candle",
        "state": "Alaska",
        "lat": "65.907699585",
        "lng": "-161.925994873",
        "size": "small_airport"
    },
    {
        "code": "CDN",
        "name": "Woodward Field (CDN), South Carolina, USA",
        "city": "Camden",
        "state": "South Carolina",
        "lat": "34.2835998535",
        "lng": "-80.56490325930001",
        "size": "small_airport"
    },
    {
        "code": "CDR",
        "name": "Chadron Municipal Airport (CDR), Nebraska, USA",
        "city": "Chadron",
        "state": "Nebraska",
        "lat": "42.837600708",
        "lng": "-103.095001221",
        "size": "medium_airport"
    },
    {
        "code": "CDS",
        "name": "Childress Municipal Airport (CDS), Texas, USA",
        "city": "Childress",
        "state": "Texas",
        "lat": "34.4337997437",
        "lng": "-100.288002014",
        "size": "medium_airport"
    },
    {
        "code": "CDV",
        "name": "Merle K (Mudhole) Smith Airport (CDV), Alaska, USA",
        "city": "Cordova",
        "state": "Alaska",
        "lat": "60.4917984",
        "lng": "-145.4779968",
        "size": "medium_airport"
    },
    {
        "code": "CDW",
        "name": "Essex County Airport (CDW), New Jersey, USA",
        "city": "Caldwell",
        "state": "New Jersey",
        "lat": "40.875198364300005",
        "lng": "-74.2814025879",
        "size": "small_airport"
    },
    {
        "code": "CEA",
        "name": "Cessna Aircraft Field (CEA), Kansas, USA",
        "city": "Wichita",
        "state": "Kansas",
        "lat": "37.648601532",
        "lng": "-97.2506027222",
        "size": "small_airport"
    },
    {
        "code": "CEC",
        "name": "Jack Mc Namara Field Airport (CEC), California, USA",
        "city": "Crescent City",
        "state": "California",
        "lat": "41.78020096",
        "lng": "-124.2369995",
        "size": "medium_airport"
    },
    {
        "code": "CEF",
        "name": "Westover ARB/Metropolitan Airport (CEF), Massachusetts, USA",
        "city": "Springfield/Chicopee",
        "state": "Massachusetts",
        "lat": "42.19400024",
        "lng": "-72.53479767",
        "size": "medium_airport"
    },
    {
        "code": "CEM",
        "name": "Central Airport (CEM), Alaska, USA",
        "city": "Central",
        "state": "Alaska",
        "lat": "65.57379913",
        "lng": "-144.7830048",
        "size": "small_airport"
    },
    {
        "code": "CEU",
        "name": "Oconee County Regional Airport (CEU), South Carolina, USA",
        "city": "Clemson",
        "state": "South Carolina",
        "lat": "34.6719017",
        "lng": "-82.8864975",
        "size": "small_airport"
    },
    {
        "code": "CEV",
        "name": "Mettel Field (CEV), Indiana, USA",
        "city": "Connersville",
        "state": "Indiana",
        "lat": "39.6985015869",
        "lng": "-85.129699707",
        "size": "small_airport"
    },
    {
        "code": "CEW",
        "name": "Bob Sikes Airport (CEW), Florida, USA",
        "city": "Crestview",
        "state": "Florida",
        "lat": "30.778799057",
        "lng": "-86.522102356",
        "size": "medium_airport"
    },
    {
        "code": "CEX",
        "name": "Chena Hot Springs Airport (CEX), Alaska, USA",
        "city": "Chena Hot Springs",
        "state": "Alaska",
        "lat": "65.0518035889",
        "lng": "-146.04699707",
        "size": "small_airport"
    },
    {
        "code": "CEY",
        "name": "Kyle Oakley Field (CEY), Kentucky, USA",
        "city": "Murray",
        "state": "Kentucky",
        "lat": "36.66460037",
        "lng": "-88.37280273",
        "size": "small_airport"
    },
    {
        "code": "CEZ",
        "name": "Cortez Municipal Airport (CEZ), Colorado, USA",
        "city": "Cortez",
        "state": "Colorado",
        "lat": "37.3030014038",
        "lng": "-108.627998352",
        "size": "small_airport"
    },
    {
        "code": "CFD",
        "name": "Coulter Field (CFD), Texas, USA",
        "city": "Bryan",
        "state": "Texas",
        "lat": "30.715700149499998",
        "lng": "-96.3313980103",
        "size": "small_airport"
    },
    {
        "code": "CFT",
        "name": "Greenlee County Airport (CFT), Arizona, USA",
        "city": "Clifton/Morenci",
        "state": "Arizona",
        "lat": "32.95280075",
        "lng": "-109.2099991",
        "size": "small_airport"
    },
    {
        "code": "CFV",
        "name": "Coffeyville Municipal Airport (CFV), Kansas, USA",
        "city": "Coffeyville",
        "state": "Kansas",
        "lat": "37.09400177",
        "lng": "-95.5718994141",
        "size": "small_airport"
    },
    {
        "code": "CGE",
        "name": "Cambridge Dorchester Airport (CGE), Maryland, USA",
        "city": "Cambridge",
        "state": "Maryland",
        "lat": "38.53929901",
        "lng": "-76.03040314",
        "size": "small_airport"
    },
    {
        "code": "CGF",
        "name": "Cuyahoga County Airport (CGF), Ohio, USA",
        "city": "Cleveland",
        "state": "Ohio",
        "lat": "41.5651016235",
        "lng": "-81.4863967896",
        "size": "medium_airport"
    },
    {
        "code": "CGI",
        "name": "Cape Girardeau Regional Airport (CGI), Missouri, USA",
        "city": "Cape Girardeau",
        "state": "Missouri",
        "lat": "37.22529983520508",
        "lng": "-89.57080078125",
        "size": "medium_airport"
    },
    {
        "code": "CGS",
        "name": "College Park Airport (CGS), Maryland, USA",
        "city": "College Park",
        "state": "Maryland",
        "lat": "38.9805984497",
        "lng": "-76.9223022461",
        "size": "small_airport"
    },
    {
        "code": "CGZ",
        "name": "Casa Grande Municipal Airport (CGZ), Arizona, USA",
        "city": "Casa Grande",
        "state": "Arizona",
        "lat": "32.954899",
        "lng": "-111.766998",
        "size": "small_airport"
    },
    {
        "code": "CHA",
        "name": "Lovell Field (CHA), Tennessee, USA",
        "city": "Chattanooga",
        "state": "Tennessee",
        "lat": "35.035301208496094",
        "lng": "-85.20379638671875",
        "size": "large_airport"
    },
    {
        "code": "CHK",
        "name": "Chickasha Municipal Airport (CHK), Oklahoma, USA",
        "city": "Chickasha",
        "state": "Oklahoma",
        "lat": "35.09740067",
        "lng": "-97.96769714",
        "size": "small_airport"
    },
    {
        "code": "CHL",
        "name": "Challis Airport (CHL), Idaho, USA",
        "city": "Challis",
        "state": "Idaho",
        "lat": "44.5229988098",
        "lng": "-114.218002319",
        "size": "small_airport"
    },
    {
        "code": "CHO",
        "name": "Charlottesville Albemarle Airport (CHO), Virginia, USA",
        "city": "Charlottesville",
        "state": "Virginia",
        "lat": "38.13859939575195",
        "lng": "-78.4529037475586",
        "size": "medium_airport"
    },
    {
        "code": "CHP",
        "name": "Circle Hot Springs Airport (CHP), Alaska, USA",
        "city": "Circle Hot Springs",
        "state": "Alaska",
        "lat": "65.485496521",
        "lng": "-144.610992432",
        "size": "small_airport"
    },
    {
        "code": "CHS",
        "name": "Charleston Air Force Base-International Airport (CHS), South Carolina, USA",
        "city": "Charleston",
        "state": "South Carolina",
        "lat": "32.89860153",
        "lng": "-80.04049683",
        "size": "large_airport"
    },
    {
        "code": "CHU",
        "name": "Chuathbaluk Airport (CHU), Alaska, USA",
        "city": "Chuathbaluk",
        "state": "Alaska",
        "lat": "61.579102",
        "lng": "-159.216003",
        "size": "small_airport"
    },
    {
        "code": "CHZ",
        "name": "Chiloquin State Airport (CHZ), Oregon, USA",
        "city": "Chiloquin",
        "state": "Oregon",
        "lat": "42.579440493",
        "lng": "-121.879062653",
        "size": "small_airport"
    },
    {
        "code": "CIC",
        "name": "Chico Municipal Airport (CIC), California, USA",
        "city": "Chico",
        "state": "California",
        "lat": "39.79539871",
        "lng": "-121.8580017",
        "size": "small_airport"
    },
    {
        "code": "CID",
        "name": "The Eastern Iowa Airport (CID), Iowa, USA",
        "city": "Cedar Rapids",
        "state": "Iowa",
        "lat": "41.884700775146484",
        "lng": "-91.71080017089844",
        "size": "large_airport"
    },
    {
        "code": "CIG",
        "name": "Craig Moffat Airport (CIG), Colorado, USA",
        "city": "Craig",
        "state": "Colorado",
        "lat": "40.4952011108",
        "lng": "-107.522003174",
        "size": "small_airport"
    },
    {
        "code": "CIK",
        "name": "Chalkyitsik Airport (CIK), Alaska, USA",
        "city": "Chalkyitsik",
        "state": "Alaska",
        "lat": "66.6449966431",
        "lng": "-143.740005493",
        "size": "small_airport"
    },
    {
        "code": "CIL",
        "name": "Council Airport (CIL), Alaska, USA",
        "city": "Council",
        "state": "Alaska",
        "lat": "64.89790344240001",
        "lng": "-163.70300293",
        "size": "small_airport"
    },
    {
        "code": "CIN",
        "name": "Arthur N Neu Airport (CIN), Iowa, USA",
        "city": "Carroll",
        "state": "Iowa",
        "lat": "42.0461997986",
        "lng": "-94.78900146480001",
        "size": "small_airport"
    },
    {
        "code": "CIR",
        "name": "Cairo Regional Airport (CIR), Illinois, USA",
        "city": "Cairo",
        "state": "Illinois",
        "lat": "37.0644989014",
        "lng": "-89.2195968628",
        "size": "small_airport"
    },
    {
        "code": "CIU",
        "name": "Chippewa County International Airport (CIU), Michigan, USA",
        "city": "Sault Ste Marie",
        "state": "Michigan",
        "lat": "46.25080108642578",
        "lng": "-84.47239685058594",
        "size": "medium_airport"
    },
    {
        "code": "CKA",
        "name": "Kegelman AF Aux Field (CKA), Oklahoma, USA",
        "city": "Cherokee",
        "state": "Oklahoma",
        "lat": "36.7439002991",
        "lng": "-98.1231002808",
        "size": "small_airport"
    },
    {
        "code": "CKB",
        "name": "North Central West Virginia Airport (CKB), West Virginia, USA",
        "city": "Clarksburg",
        "state": "West Virginia",
        "lat": "39.2966003418",
        "lng": "-80.2281036377",
        "size": "medium_airport"
    },
    {
        "code": "CKD",
        "name": "Crooked Creek Airport (CKD), Alaska, USA",
        "city": "Crooked Creek",
        "state": "Alaska",
        "lat": "61.8679008484",
        "lng": "-158.134994507",
        "size": "small_airport"
    },
    {
        "code": "CKE",
        "name": "Lampson Field (CKE), California, USA",
        "city": "Lakeport",
        "state": "California",
        "lat": "38.9906005859",
        "lng": "-122.901000977",
        "size": "small_airport"
    },
    {
        "code": "CKK",
        "name": "Sharp County Regional Airport (CKK), Arkansas, USA",
        "city": "Ash Flat",
        "state": "Arkansas",
        "lat": "36.26490021",
        "lng": "-91.56259918",
        "size": "small_airport"
    },
    {
        "code": "CKM",
        "name": "Fletcher Field (CKM), Mississippi, USA",
        "city": "Clarksdale",
        "state": "Mississippi",
        "lat": "34.2997016907",
        "lng": "-90.512298584",
        "size": "small_airport"
    },
    {
        "code": "CKN",
        "name": "Crookston Municipal Kirkwood Field (CKN), Minnesota, USA",
        "city": "Crookston",
        "state": "Minnesota",
        "lat": "47.8417015076",
        "lng": "-96.62159729",
        "size": "small_airport"
    },
    {
        "code": "CKR",
        "name": "Crane Island Airstrip (CKR), Washington, USA",
        "city": "Crane Island",
        "state": "Washington",
        "lat": "48.5978",
        "lng": "-122.9979",
        "size": "small_airport"
    },
    {
        "code": "CKU",
        "name": "Cordova Municipal Airport (CKU), Alaska, USA",
        "city": "Cordova",
        "state": "Alaska",
        "lat": "60.5438995361",
        "lng": "-145.727005005",
        "size": "small_airport"
    },
    {
        "code": "CKV",
        "name": "ClarksvilleMontgomery County Regional Airport (CKV), Tennessee, USA",
        "city": "Clarksville",
        "state": "Tennessee",
        "lat": "36.6218986511",
        "lng": "-87.4150009155",
        "size": "small_airport"
    },
    {
        "code": "CKX",
        "name": "Chicken Airport (CKX), Alaska, USA",
        "city": "Chicken",
        "state": "Alaska",
        "lat": "64.0712966919",
        "lng": "-141.95199585",
        "size": "small_airport"
    },
    {
        "code": "CLD",
        "name": "Mc Clellan-Palomar Airport (CLD), California, USA",
        "city": "Carlsbad",
        "state": "California",
        "lat": "33.12829971",
        "lng": "-117.2799988",
        "size": "medium_airport"
    },
    {
        "code": "CLE",
        "name": "Cleveland Hopkins International Airport (CLE), Ohio, USA",
        "city": "Cleveland",
        "state": "Ohio",
        "lat": "41.4117012024",
        "lng": "-81.8498001099",
        "size": "large_airport"
    },
    {
        "code": "CLG",
        "name": "New Coalinga Municipal Airport (CLG), California, USA",
        "city": "Coalinga",
        "state": "California",
        "lat": "36.16310119628906",
        "lng": "-120.29399871826172",
        "size": "small_airport"
    },
    {
        "code": "CLI",
        "name": "Clintonville Municipal Airport (CLI), Wisconsin, USA",
        "city": "Clintonville",
        "state": "Wisconsin",
        "lat": "44.613800048799995",
        "lng": "-88.731300354",
        "size": "small_airport"
    },
    {
        "code": "CLK",
        "name": "Clinton Regional Airport (CLK), Oklahoma, USA",
        "city": "Clinton",
        "state": "Oklahoma",
        "lat": "35.53829956",
        "lng": "-98.93270111",
        "size": "small_airport"
    },
    {
        "code": "CLL",
        "name": "Easterwood Field (CLL), Texas, USA",
        "city": "College Station",
        "state": "Texas",
        "lat": "30.58860016",
        "lng": "-96.36380005",
        "size": "medium_airport"
    },
    {
        "code": "CLM",
        "name": "William R Fairchild International Airport (CLM), Washington, USA",
        "city": "Port Angeles",
        "state": "Washington",
        "lat": "48.120201110839844",
        "lng": "-123.5",
        "size": "medium_airport"
    },
    {
        "code": "CLP",
        "name": "Clarks Point Airport (CLP), Alaska, USA",
        "city": "Clarks Point",
        "state": "Alaska",
        "lat": "58.83369827",
        "lng": "-158.529007",
        "size": "small_airport"
    },
    {
        "code": "CLR",
        "name": "Cliff Hatfield Memorial Airport (CLR), California, USA",
        "city": "Calipatria",
        "state": "California",
        "lat": "33.131500244099996",
        "lng": "-115.521003723",
        "size": "small_airport"
    },
    {
        "code": "CLS",
        "name": "Chehalis Centralia Airport (CLS), Washington, USA",
        "city": "Chehalis",
        "state": "Washington",
        "lat": "46.676998138399995",
        "lng": "-122.983001709",
        "size": "small_airport"
    },
    {
        "code": "CLT",
        "name": "Charlotte Douglas International Airport (CLT), North Carolina, USA",
        "city": "Charlotte",
        "state": "North Carolina",
        "lat": "35.2140007019043",
        "lng": "-80.94309997558594",
        "size": "large_airport"
    },
    {
        "code": "CLU",
        "name": "Columbus Municipal Airport (CLU), Indiana, USA",
        "city": "Columbus",
        "state": "Indiana",
        "lat": "39.2619018555",
        "lng": "-85.8963012695",
        "size": "medium_airport"
    },
    {
        "code": "CLW",
        "name": "Clearwater Air Park (CLW), Florida, USA",
        "city": "Clearwater",
        "state": "Florida",
        "lat": "27.9766998291",
        "lng": "-82.7586975098",
        "size": "small_airport"
    },
    {
        "code": "CMH",
        "name": "Port Columbus International Airport (CMH), Ohio, USA",
        "city": "Columbus",
        "state": "Ohio",
        "lat": "39.99800109863281",
        "lng": "-82.89189910888672",
        "size": "large_airport"
    },
    {
        "code": "CMI",
        "name": "University of Illinois Willard Airport (CMI), Illinois, USA",
        "city": "Champaign/Urbana",
        "state": "Illinois",
        "lat": "40.03919983",
        "lng": "-88.27809906",
        "size": "medium_airport"
    },
    {
        "code": "CMX",
        "name": "Houghton County Memorial Airport (CMX), Michigan, USA",
        "city": "Hancock",
        "state": "Michigan",
        "lat": "47.168399810791016",
        "lng": "-88.48909759521484",
        "size": "medium_airport"
    },
    {
        "code": "CMY",
        "name": "Sparta Fort Mc Coy Airport (CMY), Wisconsin, USA",
        "city": "Sparta",
        "state": "Wisconsin",
        "lat": "43.958302",
        "lng": "-90.7379",
        "size": "small_airport"
    },
    {
        "code": "CNE",
        "name": "Fremont County Airport (CNE), Colorado, USA",
        "city": "Caon City",
        "state": "Colorado",
        "lat": "38.428001403799996",
        "lng": "-105.106002808",
        "size": "small_airport"
    },
    {
        "code": "CNH",
        "name": "Claremont Municipal Airport (CNH), New Hampshire, USA",
        "city": "Claremont",
        "state": "New Hampshire",
        "lat": "43.3703994751",
        "lng": "-72.36869812009999",
        "size": "small_airport"
    },
    {
        "code": "CNK",
        "name": "Blosser Municipal Airport (CNK), Kansas, USA",
        "city": "Concordia",
        "state": "Kansas",
        "lat": "39.549301147499996",
        "lng": "-97.6522979736",
        "size": "small_airport"
    },
    {
        "code": "CNM",
        "name": "Cavern City Air Terminal (CNM), New Mexico, USA",
        "city": "Carlsbad",
        "state": "New Mexico",
        "lat": "32.337501525878906",
        "lng": "-104.26300048828125",
        "size": "medium_airport"
    },
    {
        "code": "CNO",
        "name": "Chino Airport (CNO), California, USA",
        "city": "Chino",
        "state": "California",
        "lat": "33.97470093",
        "lng": "-117.637001",
        "size": "small_airport"
    },
    {
        "code": "CNU",
        "name": "Chanute Martin Johnson Airport (CNU), Kansas, USA",
        "city": "Chanute",
        "state": "Kansas",
        "lat": "37.668800354",
        "lng": "-95.4850997925",
        "size": "medium_airport"
    },
    {
        "code": "CNW",
        "name": "TSTC Waco Airport (CNW), Texas, USA",
        "city": "Waco",
        "state": "Texas",
        "lat": "31.637800216699997",
        "lng": "-97.0740966797",
        "size": "small_airport"
    },
    {
        "code": "CNY",
        "name": "Canyonlands Field (CNY), Utah, USA",
        "city": "Moab",
        "state": "Utah",
        "lat": "38.75500107",
        "lng": "-109.7549973",
        "size": "small_airport"
    },
    {
        "code": "COA",
        "name": "Columbia Airport (COA), California, USA",
        "city": "Columbia",
        "state": "California",
        "lat": "38.030399322499996",
        "lng": "-120.415000916",
        "size": "small_airport"
    },
    {
        "code": "COD",
        "name": "Yellowstone Regional Airport (COD), Wyoming, USA",
        "city": "Cody",
        "state": "Wyoming",
        "lat": "44.520198822",
        "lng": "-109.024002075",
        "size": "medium_airport"
    },
    {
        "code": "COE",
        "name": "Coeur D'Alene - Pappy Boyington Field (COE), Idaho, USA",
        "city": "Coeur d'Alene",
        "state": "Idaho",
        "lat": "47.77429962",
        "lng": "-116.8199997",
        "size": "medium_airport"
    },
    {
        "code": "COF",
        "name": "Patrick Air Force Base (COF), Florida, USA",
        "city": "Cocoa Beach",
        "state": "Florida",
        "lat": "28.2348995209",
        "lng": "-80.6100997925",
        "size": "medium_airport"
    },
    {
        "code": "COI",
        "name": "Merritt Island Airport (COI), Florida, USA",
        "city": "Merritt Island",
        "state": "Florida",
        "lat": "28.341600418099997",
        "lng": "-80.6855010986",
        "size": "small_airport"
    },
    {
        "code": "COM",
        "name": "Coleman Municipal Airport (COM), Texas, USA",
        "city": "Coleman",
        "state": "Texas",
        "lat": "31.841100692699996",
        "lng": "-99.4036026001",
        "size": "small_airport"
    },
    {
        "code": "CON",
        "name": "Concord Municipal Airport (CON), New Hampshire, USA",
        "city": "Concord",
        "state": "New Hampshire",
        "lat": "43.20270157",
        "lng": "-71.50229645",
        "size": "medium_airport"
    },
    {
        "code": "COP",
        "name": "Cooperstown-Westville Airport (COP), New York, USA",
        "city": "Cooperstown",
        "state": "New York",
        "lat": "42.6291999817",
        "lng": "-74.89099884030001",
        "size": "small_airport"
    },
    {
        "code": "COS",
        "name": "City of Colorado Springs Municipal Airport (COS), Colorado, USA",
        "city": "Colorado Springs",
        "state": "Colorado",
        "lat": "38.805801391602",
        "lng": "-104.70099639893",
        "size": "large_airport"
    },
    {
        "code": "COT",
        "name": "Cotulla-La Salle County Airport (COT), Texas, USA",
        "city": "Cotulla",
        "state": "Texas",
        "lat": "28.45669937",
        "lng": "-99.22029877",
        "size": "small_airport"
    },
    {
        "code": "COU",
        "name": "Columbia Regional Airport (COU), Missouri, USA",
        "city": "Columbia",
        "state": "Missouri",
        "lat": "38.81809997558594",
        "lng": "-92.21959686279297",
        "size": "medium_airport"
    },
    {
        "code": "CPM",
        "name": "Compton Woodley Airport (CPM), California, USA",
        "city": "Compton",
        "state": "California",
        "lat": "33.8899993896",
        "lng": "-118.244003296",
        "size": "small_airport"
    },
    {
        "code": "CPR",
        "name": "Casper-Natrona County International Airport (CPR), Wyoming, USA",
        "city": "Casper",
        "state": "Wyoming",
        "lat": "42.90800095",
        "lng": "-106.4639969",
        "size": "large_airport"
    },
    {
        "code": "CPS",
        "name": "St Louis Downtown Airport (CPS), Illinois, USA",
        "city": "Cahokia/St Louis",
        "state": "Illinois",
        "lat": "38.570701599100005",
        "lng": "-90.1561965942",
        "size": "small_airport"
    },
    {
        "code": "CRE",
        "name": "Grand Strand Airport (CRE), South Carolina, USA",
        "city": "North Myrtle Beach",
        "state": "South Carolina",
        "lat": "33.8116989136",
        "lng": "-78.72389984130001",
        "size": "medium_airport"
    },
    {
        "code": "CRG",
        "name": "Jacksonville Executive at Craig Airport (CRG), Florida, USA",
        "city": "Jacksonville",
        "state": "Florida",
        "lat": "30.3362998962",
        "lng": "-81.51439666750001",
        "size": "medium_airport"
    },
    {
        "code": "CRO",
        "name": "Corcoran Airport (CRO), California, USA",
        "city": "Corcoran",
        "state": "California",
        "lat": "36.1025009155",
        "lng": "-119.595001221",
        "size": "small_airport"
    },
    {
        "code": "CRP",
        "name": "Corpus Christi International Airport (CRP), Texas, USA",
        "city": "Corpus Christi",
        "state": "Texas",
        "lat": "27.77039909362793",
        "lng": "-97.5011978149414",
        "size": "large_airport"
    },
    {
        "code": "CRS",
        "name": "C David Campbell Field Corsicana Municipal Airport (CRS), Texas, USA",
        "city": "Corsicana",
        "state": "Texas",
        "lat": "32.0280990601",
        "lng": "-96.4005966187",
        "size": "small_airport"
    },
    {
        "code": "CRT",
        "name": "Z M Jack Stell Field (CRT), Arkansas, USA",
        "city": "Crossett",
        "state": "Arkansas",
        "lat": "33.1782989502",
        "lng": "-91.8802032471",
        "size": "small_airport"
    },
    {
        "code": "CRW",
        "name": "Yeager Airport (CRW), West Virginia, USA",
        "city": "Charleston",
        "state": "West Virginia",
        "lat": "38.37310028076172",
        "lng": "-81.59320068359375",
        "size": "large_airport"
    },
    {
        "code": "CRX",
        "name": "Roscoe Turner Airport (CRX), Mississippi, USA",
        "city": "Corinth",
        "state": "Mississippi",
        "lat": "34.9150009155",
        "lng": "-88.6035003662",
        "size": "small_airport"
    },
    {
        "code": "CSE",
        "name": "Buckhorn Ranch Airport (CSE), Colorado, USA",
        "city": "Crested Butte",
        "state": "Colorado",
        "lat": "38.8518981934",
        "lng": "-106.93282",
        "size": "small_airport"
    },
    {
        "code": "CSG",
        "name": "Columbus Metropolitan Airport (CSG), Georgia, USA",
        "city": "Columbus",
        "state": "Georgia",
        "lat": "32.516300201416016",
        "lng": "-84.93890380859375",
        "size": "medium_airport"
    },
    {
        "code": "CSM",
        "name": "Clinton Sherman Airport (CSM), Oklahoma, USA",
        "city": "Clinton",
        "state": "Oklahoma",
        "lat": "35.3398017883",
        "lng": "-99.20050048830001",
        "size": "small_airport"
    },
    {
        "code": "CSN",
        "name": "Carson Airport (CSN), Nevada, USA",
        "city": "Carson City",
        "state": "Nevada",
        "lat": "39.192199707",
        "lng": "-119.73400116",
        "size": "small_airport"
    },
    {
        "code": "CSQ",
        "name": "Creston Municipal Airport (CSQ), Iowa, USA",
        "city": "Creston",
        "state": "Iowa",
        "lat": "41.021400451699996",
        "lng": "-94.36329650879999",
        "size": "small_airport"
    },
    {
        "code": "CSV",
        "name": "Crossville Memorial Whitson Field (CSV), Tennessee, USA",
        "city": "Crossville",
        "state": "Tennessee",
        "lat": "35.9513015747",
        "lng": "-85.08499908450001",
        "size": "medium_airport"
    },
    {
        "code": "CTB",
        "name": "Cut Bank International Airport (CTB), Montana, USA",
        "city": "Cut Bank",
        "state": "Montana",
        "lat": "48.6083984375",
        "lng": "-112.375999451",
        "size": "medium_airport"
    },
    {
        "code": "CTH",
        "name": "Chester County G O Carlson Airport (CTH), Pennsylvania, USA",
        "city": "Coatesville",
        "state": "Pennsylvania",
        "lat": "39.97900009",
        "lng": "-75.8655014",
        "size": "small_airport"
    },
    {
        "code": "CTO",
        "name": "Calverton Executive Airpark (CTO), New York, USA",
        "city": "Calverton",
        "state": "New York",
        "lat": "40.9151000977",
        "lng": "-72.7919006348",
        "size": "small_airport"
    },